{
  "LHR": {"lat": 51.47, "lon": -0.4543, "city": "London"},
  "JFK": {"lat": 40.6413, "lon": -73.7781, "city": "New York"},
  "SFO": {"lat": 37.6213, "lon": -122.379, "city": "San Francisco"},
  "LAX": {"lat": 33.9416, "lon": -118.4085, "city": "Los Angeles"},
  "ORD": {"lat": 41.9742, "lon": -87.9073, "city": "Chicago"},
  "FRA": {"lat": 50.0379, "lon": 8.5622, "city": "Frankfurt"},
  "CDG": {"lat": 49.0097, "lon": 2.5479, "city": "Paris"},
  "DXB": {"lat": 25.2532, "lon": 55.3657, "city": "Dubai"},
  "SIN": {"lat": 1.3644, "lon": 103.9915, "city": "Singapore"},
  "DEL": {"lat": 28.5562, "lon": 77.1, "city": "Delhi"},
  "BOM": {"lat": 19.0896, "lon": 72.8656, "city": "Mumbai"}
}
